[
  {
    "city": "Vinton",
    "contactName": "Dorthea",
    "latitude": 0,
    "postcode": "Lorem ipsum dolor si0",
    "description": "0",
    "enabled": 0,
    "countryId": "Ho",
    "regionId": 0,
    "phone": "652-585-3182",
    "street": "Lorem ipsum dolor si0",
    "name": "Letta",
    "region": "Lorem ipsum dolor si0",
    "fax": "332-674-3362",
    "useDefaultCarrierConfig": 0,
    "email": "Merna@dummy.com",
    "longitude": 0,
    "sourceCode": "a520bda0-ab1d-49f5-9d8f-0f176b784996"
  },
  {
    "city": "Eastlake",
    "contactName": "Ettie",
    "latitude": 1,
    "postcode": "Lorem ipsum dolor si1",
    "description": "1",
    "enabled": 1,
    "countryId": "Ta",
    "regionId": 1,
    "phone": "546-139-8499",
    "street": "Lorem ipsum dolor si1",
    "name": "Kore",
    "region": "Lorem ipsum dolor si1",
    "fax": "584-819-9196",
    "useDefaultCarrierConfig": 1,
    "email": "Gayle@dummy.com",
    "longitude": 1,
    "sourceCode": "e6801382-4b94-4b11-9f13-48c09e9a59f1"
  },
  {
    "city": "Franklin",
    "contactName": "Nikoletta",
    "latitude": 2,
    "postcode": "Lorem ipsum dolor si2",
    "description": "2",
    "enabled": 2,
    "countryId": "Un",
    "regionId": 2,
    "phone": "149-844-5969",
    "street": "Lorem ipsum dolor si2",
    "name": "Vanda",
    "region": "Lorem ipsum dolor si2",
    "fax": "793-982-3534",
    "useDefaultCarrierConfig": 2,
    "email": "Babita@dummy.com",
    "longitude": 2,
    "sourceCode": "fa3bc214-0321-4528-bc99-13a16d271733"
  },
  {
    "city": "Hermleigh",
    "contactName": "Jewell",
    "latitude": 3,
    "postcode": "Lorem ipsum dolor si3",
    "description": "3",
    "enabled": 3,
    "countryId": "Ne",
    "regionId": 3,
    "phone": "496-693-5215",
    "street": "Lorem ipsum dolor si3",
    "name": "Griselda",
    "region": "Lorem ipsum dolor si3",
    "fax": "333-394-6157",
    "useDefaultCarrierConfig": 3,
    "email": "Lindsey@dummy.com",
    "longitude": 3,
    "sourceCode": "717bebd8-4df7-4638-995a-4c682ffb0ff4"
  },
  {
    "city": "Delanson",
    "contactName": "Karie",
    "latitude": 4,
    "postcode": "Lorem ipsum dolor si4",
    "description": "4",
    "enabled": 4,
    "countryId": "Ca",
    "regionId": 4,
    "phone": "748-119-8596",
    "street": "Lorem ipsum dolor si4",
    "name": "Nancie",
    "region": "Lorem ipsum dolor si4",
    "fax": "232-846-1838",
    "useDefaultCarrierConfig": 4,
    "email": "Martguerit@dummy.com",
    "longitude": 4,
    "sourceCode": "fc6beb35-da7c-4185-8dda-663bcaad446a"
  },
  {
    "city": "Providence",
    "contactName": "Alexandrin",
    "latitude": 5,
    "postcode": "Lorem ipsum dolor si5",
    "description": "5",
    "enabled": 5,
    "countryId": "Vi",
    "regionId": 5,
    "phone": "277-639-1925",
    "street": "Lorem ipsum dolor si5",
    "name": "Drusie",
    "region": "Lorem ipsum dolor si5",
    "fax": "471-721-5251",
    "useDefaultCarrierConfig": 5,
    "email": "Vilhelmina@dummy.com",
    "longitude": 5,
    "sourceCode": "ccda5561-5f0c-4762-a958-64720a458c1e"
  },
  {
    "city": "Strawn",
    "contactName": "Page",
    "latitude": 6,
    "postcode": "Lorem ipsum dolor si6",
    "description": "6",
    "enabled": 6,
    "countryId": "Se",
    "regionId": 6,
    "phone": "234-936-1137",
    "street": "Lorem ipsum dolor si6",
    "name": "Loleta",
    "region": "Lorem ipsum dolor si6",
    "fax": "667-357-5642",
    "useDefaultCarrierConfig": 6,
    "email": "Jaimie@dummy.com",
    "longitude": 6,
    "sourceCode": "cc039cd2-e378-4c44-873a-92ccf07aae69"
  },
  {
    "city": "Salt Lake ",
    "contactName": "Thomasina",
    "latitude": 7,
    "postcode": "Lorem ipsum dolor si7",
    "description": "7",
    "enabled": 7,
    "countryId": "Sw",
    "regionId": 7,
    "phone": "229-534-8413",
    "street": "Lorem ipsum dolor si7",
    "name": "Tommi",
    "region": "Lorem ipsum dolor si7",
    "fax": "657-215-9437",
    "useDefaultCarrierConfig": 7,
    "email": "Stephine@dummy.com",
    "longitude": 7,
    "sourceCode": "9f21b097-d31a-4f7d-9351-1572ebee2e02"
  },
  {
    "city": "Pope Army ",
    "contactName": "Kaylyn",
    "latitude": 8,
    "postcode": "Lorem ipsum dolor si8",
    "description": "8",
    "enabled": 8,
    "countryId": "Ir",
    "regionId": 8,
    "phone": "424-832-9259",
    "street": "Lorem ipsum dolor si8",
    "name": "Libbi",
    "region": "Lorem ipsum dolor si8",
    "fax": "325-817-1355",
    "useDefaultCarrierConfig": 8,
    "email": "Guillema@dummy.com",
    "longitude": 8,
    "sourceCode": "2855074b-41db-4549-8480-3adf6b232dec"
  },
  {
    "city": "East Bend",
    "contactName": "Tandie",
    "latitude": 9,
    "postcode": "Lorem ipsum dolor si9",
    "description": "9",
    "enabled": 9,
    "countryId": "Sv",
    "regionId": 9,
    "phone": "377-764-7693",
    "street": "Lorem ipsum dolor si9",
    "name": "Riva",
    "region": "Lorem ipsum dolor si9",
    "fax": "639-447-8616",
    "useDefaultCarrierConfig": 9,
    "email": "Adah@dummy.com",
    "longitude": 9,
    "sourceCode": "73e31807-e338-4250-b867-86b5ccd284a0"
  }
]