[
  {
    "country": "Mo",
    "pickupLocationId": "Lorem ipsum dolor si0",
    "distance": 0,
    "city": "Star City",
    "street": "0",
    "name": "Koren",
    "postcode": "Lorem ipsum dolor si0",
    "openingHours": "0",
    "recipientAddressId": 0,
    "region": "Lorem ipsum dolor si0",
    "shippingExperiences": "0",
    "selected": 0,
    "entityId": 1453905598
  },
  {
    "country": "Bu",
    "pickupLocationId": "Lorem ipsum dolor si1",
    "distance": 1,
    "city": "Peoria",
    "street": "1",
    "name": "Grier",
    "postcode": "Lorem ipsum dolor si1",
    "openingHours": "1",
    "recipientAddressId": 1,
    "region": "Lorem ipsum dolor si1",
    "shippingExperiences": "1",
    "selected": 1,
    "entityId": 1193339583
  },
  {
    "country": "Ma",
    "pickupLocationId": "Lorem ipsum dolor si2",
    "distance": 2,
    "city": "Flaxton",
    "street": "2",
    "name": "Gusti",
    "postcode": "Lorem ipsum dolor si2",
    "openingHours": "2",
    "recipientAddressId": 2,
    "region": "Lorem ipsum dolor si2",
    "shippingExperiences": "2",
    "selected": 2,
    "entityId": 823377291
  },
  {
    "country": "Fr",
    "pickupLocationId": "Lorem ipsum dolor si3",
    "distance": 3,
    "city": "Troutdale",
    "street": "3",
    "name": "Violette",
    "postcode": "Lorem ipsum dolor si3",
    "openingHours": "3",
    "recipientAddressId": 3,
    "region": "Lorem ipsum dolor si3",
    "shippingExperiences": "3",
    "selected": 3,
    "entityId": 1082626135
  },
  {
    "country": "Ta",
    "pickupLocationId": "Lorem ipsum dolor si4",
    "distance": 4,
    "city": "Milford",
    "street": "4",
    "name": "Jayne",
    "postcode": "Lorem ipsum dolor si4",
    "openingHours": "4",
    "recipientAddressId": 4,
    "region": "Lorem ipsum dolor si4",
    "shippingExperiences": "4",
    "selected": 4,
    "entityId": 1811643104
  },
  {
    "country": "Hu",
    "pickupLocationId": "Lorem ipsum dolor si5",
    "distance": 5,
    "city": "Shenandoah",
    "street": "5",
    "name": "Sadie",
    "postcode": "Lorem ipsum dolor si5",
    "openingHours": "5",
    "recipientAddressId": 5,
    "region": "Lorem ipsum dolor si5",
    "shippingExperiences": "5",
    "selected": 5,
    "entityId": 900362356
  },
  {
    "country": "Sl",
    "pickupLocationId": "Lorem ipsum dolor si6",
    "distance": 6,
    "city": "Milwaukee",
    "street": "6",
    "name": "Sheena",
    "postcode": "Lorem ipsum dolor si6",
    "openingHours": "6",
    "recipientAddressId": 6,
    "region": "Lorem ipsum dolor si6",
    "shippingExperiences": "6",
    "selected": 6,
    "entityId": 869119411
  },
  {
    "country": "Co",
    "pickupLocationId": "Lorem ipsum dolor si7",
    "distance": 7,
    "city": "Stella Nia",
    "street": "7",
    "name": "Auria",
    "postcode": "Lorem ipsum dolor si7",
    "openingHours": "7",
    "recipientAddressId": 7,
    "region": "Lorem ipsum dolor si7",
    "shippingExperiences": "7",
    "selected": 7,
    "entityId": 1716203599
  },
  {
    "country": "Mo",
    "pickupLocationId": "Lorem ipsum dolor si8",
    "distance": 8,
    "city": "Mifflintow",
    "street": "8",
    "name": "Dian",
    "postcode": "Lorem ipsum dolor si8",
    "openingHours": "8",
    "recipientAddressId": 8,
    "region": "Lorem ipsum dolor si8",
    "shippingExperiences": "8",
    "selected": 8,
    "entityId": 1449936991
  },
  {
    "country": "Tu",
    "pickupLocationId": "Lorem ipsum dolor si9",
    "distance": 9,
    "city": "Croton On ",
    "street": "9",
    "name": "Chandal",
    "postcode": "Lorem ipsum dolor si9",
    "openingHours": "9",
    "recipientAddressId": 9,
    "region": "Lorem ipsum dolor si9",
    "shippingExperiences": "9",
    "selected": 9,
    "entityId": 414923864
  }
]