[
  {
    "collectionPointId": "Lorem ipsum dolor si0",
    "country": "Ne",
    "distance": 0,
    "city": "East Chath",
    "street": "0",
    "name": "Pammy",
    "postcode": "Lorem ipsum dolor si0",
    "openingHours": "0",
    "recipientAddressId": 0,
    "region": "Lorem ipsum dolor si0",
    "shippingExperiences": "0",
    "selected": 0,
    "entityId": 2034147217
  },
  {
    "collectionPointId": "Lorem ipsum dolor si1",
    "country": "Th",
    "distance": 1,
    "city": "Ralls",
    "street": "1",
    "name": "Hanny",
    "postcode": "Lorem ipsum dolor si1",
    "openingHours": "1",
    "recipientAddressId": 1,
    "region": "Lorem ipsum dolor si1",
    "shippingExperiences": "1",
    "selected": 1,
    "entityId": 1025470891
  },
  {
    "collectionPointId": "Lorem ipsum dolor si2",
    "country": "Th",
    "distance": 2,
    "city": "Lyford",
    "street": "2",
    "name": "Sherill",
    "postcode": "Lorem ipsum dolor si2",
    "openingHours": "2",
    "recipientAddressId": 2,
    "region": "Lorem ipsum dolor si2",
    "shippingExperiences": "2",
    "selected": 2,
    "entityId": 2055696169
  },
  {
    "collectionPointId": "Lorem ipsum dolor si3",
    "country": "Ce",
    "distance": 3,
    "city": "Providence",
    "street": "3",
    "name": "Marissa",
    "postcode": "Lorem ipsum dolor si3",
    "openingHours": "3",
    "recipientAddressId": 3,
    "region": "Lorem ipsum dolor si3",
    "shippingExperiences": "3",
    "selected": 3,
    "entityId": 1081618545
  },
  {
    "collectionPointId": "Lorem ipsum dolor si4",
    "country": "Br",
    "distance": 4,
    "city": "French Set",
    "street": "4",
    "name": "Tabina",
    "postcode": "Lorem ipsum dolor si4",
    "openingHours": "4",
    "recipientAddressId": 4,
    "region": "Lorem ipsum dolor si4",
    "shippingExperiences": "4",
    "selected": 4,
    "entityId": 2061466176
  },
  {
    "collectionPointId": "Lorem ipsum dolor si5",
    "country": "Sw",
    "distance": 5,
    "city": "Manville",
    "street": "5",
    "name": "Elane",
    "postcode": "Lorem ipsum dolor si5",
    "openingHours": "5",
    "recipientAddressId": 5,
    "region": "Lorem ipsum dolor si5",
    "shippingExperiences": "5",
    "selected": 5,
    "entityId": 435066660
  },
  {
    "collectionPointId": "Lorem ipsum dolor si6",
    "country": "Es",
    "distance": 6,
    "city": "Monroe",
    "street": "6",
    "name": "Nora",
    "postcode": "Lorem ipsum dolor si6",
    "openingHours": "6",
    "recipientAddressId": 6,
    "region": "Lorem ipsum dolor si6",
    "shippingExperiences": "6",
    "selected": 6,
    "entityId": 1319340325
  },
  {
    "collectionPointId": "Lorem ipsum dolor si7",
    "country": "Mo",
    "distance": 7,
    "city": "Wimauma",
    "street": "7",
    "name": "Abby",
    "postcode": "Lorem ipsum dolor si7",
    "openingHours": "7",
    "recipientAddressId": 7,
    "region": "Lorem ipsum dolor si7",
    "shippingExperiences": "7",
    "selected": 7,
    "entityId": 238289751
  },
  {
    "collectionPointId": "Lorem ipsum dolor si8",
    "country": "Mo",
    "distance": 8,
    "city": "Morrison",
    "street": "8",
    "name": "Bobby",
    "postcode": "Lorem ipsum dolor si8",
    "openingHours": "8",
    "recipientAddressId": 8,
    "region": "Lorem ipsum dolor si8",
    "shippingExperiences": "8",
    "selected": 8,
    "entityId": 1522010031
  },
  {
    "collectionPointId": "Lorem ipsum dolor si9",
    "country": "Co",
    "distance": 9,
    "city": "Murrayvill",
    "street": "9",
    "name": "Bernardine",
    "postcode": "Lorem ipsum dolor si9",
    "openingHours": "9",
    "recipientAddressId": 9,
    "region": "Lorem ipsum dolor si9",
    "shippingExperiences": "9",
    "selected": 9,
    "entityId": 986393955
  }
]